City_ID,City,Cloudiness,Country,Date,Humidity,Lat,Lng,Max Temp,Wind Speed
0,Arecibo,0,PR,1680569136,79,18.4724,-66.7157,25.72,0.45
1,Kaitangata,30,NZ,1680569192,53,-46.2817,169.8464,17.18,3.07
2,Carnarvon,47,AU,1680569192,70,-24.8667,113.6333,24.43,6.13
3,Puerto Ayora,21,EC,1680569193,91,-0.7393,-90.3518,27.53,1.34
4,Castro,2,BR,1680569193,85,-24.7911,-50.0119,15.28,1.28
5,Siderno,100,IT,1680569193,85,38.2779,16.302,11.39,5.4
6,Eyl,99,SO,1680569193,66,7.9803,49.8164,27.94,5.82
7,Busselton,66,AU,1680569193,66,-33.65,115.3333,18.19,4.41
8,Khatanga,100,RU,1680569193,95,71.9667,102.5,-29.68,5.3
9,Mataura,43,NZ,1680569194,51,-46.1927,168.8643,14.71,2.07
10,Takoradze,96,GH,1680569194,84,4.8845,-1.7554,26.61,3.06
11,Geraldton,62,AU,1680569194,73,-28.7667,114.6,22.23,6.69
12,Chui,100,UY,1680569194,83,-33.6971,-53.4616,17.03,1.6
13,Beloha,0,MG,1680569194,95,-25.1667,45.05,21.13,2.82
14,Punta Arenas,40,CL,1680569132,61,-53.15,-70.9167,8.06,9.26
15,Bluff,73,NZ,1680569195,70,-46.6,168.3333,14.89,5.11
16,Atuona,74,PF,1680569195,77,-9.8,-139.0333,27.21,5.98
17,Rikitea,97,PF,1680569195,81,-23.1203,-134.9692,26.74,6.68
18,Ponta do Sol,15,PT,1680569195,60,32.6667,-17.1,17.35,5.78
19,Klaksvík,100,FO,1680569195,91,62.2266,-6.589,7.51,11.86
20,Port Hardy,75,CA,1680569109,93,50.6996,-127.4199,4.1,4.12
21,Yellowknife,100,CA,1680569195,73,62.456,-114.3525,-8.71,2.06
22,Dikson,100,RU,1680569195,98,73.5069,80.5464,-22.6,4.81
23,Chowchilla,0,US,1680569196,45,37.123,-120.2602,14.88,8.45
24,Butaritari,92,KI,1680569196,81,3.0707,172.7902,27.67,8.4
25,Torbay,75,CA,1680569196,82,47.6666,-52.7314,-0.79,6.69
26,Albany,100,US,1680568939,55,42.6001,-73.9662,15.23,3.95
27,Ushuaia,75,AR,1680569196,87,-54.8,-68.3,7.81,14.92
28,Vila Velha,0,BR,1680569196,76,-20.3297,-40.2925,24.97,3.09
29,Thompson,40,CA,1680569197,35,55.7435,-97.8558,-7.91,1.03
30,Nanortalik,94,GL,1680569197,85,60.1432,-45.2371,-0.35,0.4
31,Orapa,0,BW,1680569197,45,-21.2833,25.3667,21.68,3.22
32,Tuktoyaktuk,20,CA,1680569197,78,69.4541,-133.0374,-18.0,2.57
33,Jamestown,100,US,1680568944,57,42.097,-79.2353,9.8,2.57
34,Cabo San Lucas,100,MX,1680569198,53,22.8909,-109.9124,29.61,6.69
35,Pevek,100,RU,1680569032,82,69.7008,170.3133,-21.08,3.96
36,Panabá,100,MX,1680569198,55,21.2833,-88.2667,27.37,7.74
37,Grootfontein,14,NA,1680569198,94,-19.5667,18.1167,16.76,1.03
38,Luanda,0,AO,1680568978,73,-8.8368,13.2343,26.0,2.06
39,Hilo,72,US,1680568999,77,19.7297,-155.09,26.25,2.68
40,Alice Springs,16,AU,1680569199,28,-23.7,133.8833,26.75,5.14
41,Flinders,76,AU,1680569199,68,-34.5833,150.8552,24.1,1.79
42,Chokurdakh,19,RU,1680569199,90,70.6333,147.9167,-13.23,3.37
43,Shache,100,CN,1680569199,17,38.4167,77.2406,8.57,7.43
44,Vaini,20,TO,1680569199,70,-21.2,-175.2,29.09,4.12
45,Port Elizabeth,0,ZA,1680569200,82,-33.918,25.5701,17.4,6.69
46,Sibolga,98,ID,1680569200,82,1.7427,98.7792,25.52,1.04
47,Cherskiy,100,RU,1680569200,72,68.75,161.3,-14.66,7.16
48,Vestmannaeyjar,100,IS,1680569200,90,63.4427,-20.2734,8.11,13.31
49,Airai,86,TL,1680569200,62,-8.9266,125.4092,21.64,1.0
50,Narsaq,96,GL,1680569201,78,60.9167,-46.05,7.12,2.65
51,New Norfolk,23,AU,1680569201,47,-42.7826,147.0587,18.73,2.22
52,Mana,38,GF,1680568822,80,5.6592,-53.7767,24.97,3.81
53,Tessalit,0,ML,1680569201,7,20.1986,1.0114,24.33,1.59
54,Belyy Yar,0,RU,1680569201,54,53.6039,91.3903,-2.06,1.0
55,Lere,100,NG,1680569201,13,10.387,8.5726,24.62,0.86
56,Boa Vista,0,BR,1680569201,45,2.8197,-60.6733,29.99,5.14
57,Isangel,75,VU,1680569202,70,-19.55,169.2667,32.06,2.57
58,Kabare,99,CD,1680569202,93,-2.4683,28.8242,16.52,0.37
59,Kommunisticheskiy,93,RU,1680569202,96,61.6789,64.4819,-6.75,3.04
60,Faya,60,SA,1680569202,69,18.3851,42.4509,13.29,0.9
61,Monção,100,PT,1680569202,85,42.0789,-8.4808,13.5,1.79
62,Druzhba,64,UA,1680569202,92,52.0428,33.9453,4.84,2.56
63,Ribeira Grande,100,PT,1680569202,83,38.5167,-28.7,12.1,2.68
64,Tasiilaq,100,GL,1680569203,90,65.6145,-37.6368,-2.91,0.89
65,Mar del Plata,35,AR,1680569143,85,-38.0023,-57.5575,16.64,0.0
66,Aleppo Governorate,95,SY,1680569203,62,36.25,37.5,13.64,4.29
67,Assiut,83,EG,1680569203,11,27.181,31.1837,19.1,1.11
68,Taunton,5,GB,1680569203,93,51.0211,-3.1047,6.61,1.74
69,Saint Anthony,100,US,1680569203,69,45.0205,-93.218,4.53,4.63
70,Harar,24,ET,1680569204,84,9.3094,42.1258,15.07,0.2
71,Saint-Philippe,95,RE,1680569204,80,-21.3585,55.7679,23.77,3.27
72,Fairbanks,75,US,1680569102,56,64.8378,-147.7164,2.0,2.06
73,Parrita,35,CR,1680569204,73,9.5201,-84.3225,27.55,0.46
74,Yangi Marg`ilon,100,UZ,1680569204,71,40.4272,71.7189,13.4,4.12
75,Kapaa,75,US,1680569204,89,22.0752,-159.319,25.99,7.2
76,Atar,1,MR,1680569205,10,20.5169,-13.0499,25.68,3.18
77,Mahébourg,40,MU,1680569205,88,-20.4081,57.7,25.16,1.54
78,Esil,58,KZ,1680569205,71,51.9556,66.4042,1.43,4.47
79,Hithadhoo,10,MV,1680569205,69,-0.6,73.0833,27.79,2.54
80,Bonavista,13,CA,1680569206,79,48.6499,-53.1147,-1.08,7.58
81,Camaná,89,PE,1680569206,85,-16.6228,-72.7111,24.04,1.99
82,Ambilobe,13,MG,1680569206,96,-13.2,49.05,22.23,1.48
83,Alihe,63,CN,1680569206,34,50.5667,123.7167,-1.37,5.66
84,Pemba,40,MZ,1680569206,94,-12.974,40.5178,24.39,4.12
85,Ushtobe,0,KZ,1680569206,29,45.2514,77.9838,1.05,6.97
86,Nemuro,100,JP,1680569206,63,43.3236,145.575,4.14,5.79
87,Esperance,100,AU,1680569207,75,-33.8667,121.9,20.07,3.47
88,Kruisfontein,55,ZA,1680569207,87,-34.0033,24.7314,14.81,4.16
89,San Quintín,5,MX,1680569169,61,30.4833,-115.95,13.11,11.83
90,Sint-Pieters-Leeuw,14,BE,1680568756,75,50.7896,4.2475,3.08,3.05
91,Dubbo,0,AU,1680569207,53,-32.25,148.6167,24.07,5.14
92,Oussouye,0,SN,1680569208,77,12.485,-16.5469,24.05,3.27
93,Mehamn,97,NO,1680569208,80,71.0357,27.8492,0.97,12.35
94,Luangwa,16,ZM,1680569208,96,-15.6167,30.4167,19.94,1.23
95,Florø,100,NO,1680569038,70,61.5996,5.0328,4.98,4.12
96,Coquimbo,0,CL,1680568997,100,-29.9533,-71.3436,15.85,1.03
97,Pangnirtung,33,CA,1680569208,71,66.1451,-65.7125,-18.64,3.29
98,Qaanaaq,0,GL,1680569209,63,77.484,-69.3632,-23.35,3.13
99,Souillac,40,MU,1680569209,88,-20.5167,57.5167,25.21,1.54
100,Hobart,20,AU,1680569032,60,-42.8794,147.3294,18.92,4.63
101,Oktyabr'skoye,19,RU,1680569209,93,43.0645,44.7417,2.08,2.0
102,Taoudenni,0,ML,1680569209,6,22.6783,-3.9836,28.35,3.32
103,Norman Wells,40,CA,1680569209,69,65.282,-126.8329,-1.98,5.66
104,Ancud,98,CL,1680569210,92,-41.8697,-73.8203,11.57,1.55
105,Bredasdorp,100,ZA,1680569210,84,-34.5322,20.0403,15.27,1.09
106,Iqaluit,75,CA,1680569210,71,63.7506,-68.5145,-17.15,8.23
107,Petatlán,6,MX,1680569210,67,17.5167,-101.2667,25.82,1.54
108,Tomakivka,67,UA,1680569210,94,47.8157,34.7414,6.37,2.05
109,Lorengau,29,PG,1680569211,64,-2.0226,147.2712,29.82,1.83
110,Saskylakh,97,RU,1680569213,96,71.9167,114.0833,-22.45,5.59
111,Ipixuna,100,BR,1680569213,98,-1.7625,-48.8043,22.62,1.37
112,Mamakan,100,RU,1680569214,75,57.8161,114.0028,-3.37,7.06
113,Saquena,100,PE,1680569214,97,-4.6667,-73.5167,23.04,0.59
114,Longyearbyen,40,SJ,1680569214,66,78.2186,15.6401,-14.09,5.66
115,Hamilton,20,US,1680569109,50,39.1834,-84.5333,20.97,6.17
116,East London,100,ZA,1680569214,69,-33.0153,27.9116,19.11,8.09
117,Saint Paul Harbor,100,US,1680569214,93,57.79,-152.4072,1.73,4.63
118,Camacha,40,PT,1680569214,63,33.0833,-16.3333,15.68,9.26
119,Opuwo,84,NA,1680569214,43,-18.0607,13.84,20.96,2.57
120,Saint-Augustin,23,CA,1680569215,80,51.226,-58.6502,-2.43,2.35
121,Mīnāb,5,IR,1680569215,72,27.1467,57.0801,19.48,1.0
122,Kulhudhuffushi,90,MV,1680569215,67,6.6221,73.07,27.67,1.85
123,Jacareacanga,99,BR,1680569215,98,-6.2222,-57.7528,22.11,0.65
124,Arona,0,ES,1680569215,82,28.0996,-16.681,16.9,3.09
125,Distrikt Brokopondo,80,SR,1680569215,73,4.75,-55.1667,25.44,4.32
126,Tigil',91,RU,1680569215,82,57.8,158.6667,-6.36,1.51
127,Avarua,20,CK,1680569215,61,-21.2078,-159.775,27.03,5.66
128,Vila,100,PT,1680569215,72,42.0304,-8.1588,7.49,2.16
129,Ziro,100,IN,1680569216,95,27.6333,93.8333,5.41,0.85
130,Cockburn Town,40,TC,1680569216,73,21.4612,-71.1419,25.98,6.17
131,Dzhida,14,RU,1680569216,31,50.6772,106.1806,-2.93,1.63
132,Provideniya,75,RU,1680569216,61,64.3833,-173.3,-11.94,7.0
133,Goderich,100,CA,1680569216,50,43.7501,-81.7165,11.18,3.6
134,Hong Kong,11,HK,1680569081,93,22.2855,114.1577,25.24,0.45
135,Kanniyākumāri,100,IN,1680569217,82,8.0833,77.5667,26.1,4.48
136,Port Augusta,70,AU,1680569217,19,-32.5,137.7667,25.31,2.41
137,Mossamedes,37,AO,1680569217,77,-15.1961,12.1522,23.86,3.35
138,Bahir Dar,12,ET,1680569218,33,11.5936,37.3908,19.81,2.27
139,Port Alfred,100,ZA,1680569218,82,-33.5906,26.891,17.32,1.79
140,Samarinda,100,ID,1680569218,87,-0.5,117.15,25.76,0.94
141,Manta,40,EC,1680569218,83,-0.95,-80.7333,26.88,2.57
142,Kozulka,17,UA,1680569218,94,50.0351,23.797,-4.34,1.79
143,Alekseyevsk,100,RU,1680569218,94,57.8406,108.3492,-3.79,6.26
144,Pontianak,20,ID,1680569059,94,-0.0333,109.3333,22.99,2.06
145,La Unión,100,PE,1680569218,76,-5.4,-80.75,27.45,4.85
146,Barrow,75,US,1680569219,72,71.2906,-156.7887,-14.99,5.66
147,Poum,65,NC,1680569219,79,-20.2333,164.0167,27.88,7.25
148,Ban Nahin,0,LA,1680569219,53,18.2418,104.2122,29.74,1.57
149,Ponta Delgada,20,PT,1680569219,76,37.7333,-25.6667,13.4,2.06
150,São José da Coroa Grande,50,BR,1680569219,79,-8.8978,-35.1478,25.8,2.34
151,Sabang,98,ID,1680569219,74,5.8933,95.3214,27.22,1.31
152,Saint George,100,US,1680569002,76,37.1041,-113.5841,4.33,9.26
153,Aswān,0,EG,1680569220,13,24.0934,32.907,21.61,3.09
154,Turukhansk,25,RU,1680569220,96,65.8167,87.9833,-27.02,2.91
155,Benguela,100,AO,1680569220,85,-12.5763,13.4055,25.85,2.39
156,Coatzintla,40,MX,1680568905,74,20.4833,-97.45,30.32,5.14
157,Lowestoft,5,GB,1680569220,66,52.4752,1.7516,4.02,4.55
158,Madimba,28,TZ,1680569220,92,-10.4,40.3333,24.01,2.93
159,Yenangyaung,6,MM,1680569220,60,20.4667,94.8833,25.31,0.48
160,Grindavik,100,IS,1680569221,100,63.8424,-22.4338,8.97,11.83
161,Padang,53,ID,1680569221,79,-0.9492,100.3543,25.03,1.21
162,Kamaishi,1,JP,1680569221,49,39.2667,141.8833,12.79,2.37
163,Nikolskoye,100,RU,1680569221,96,59.7035,30.7861,-1.06,2.94
164,La Plaine,40,DM,1680569222,81,15.3333,-61.25,24.8,6.15
165,Chicama,80,PE,1680569222,72,-7.8447,-79.1469,27.3,2.59
166,Hermanus,100,ZA,1680569222,81,-34.4187,19.2345,16.3,2.05
167,Lázaro Cárdenas,0,MX,1680569211,67,17.9583,-102.2,26.29,3.85
168,Cape Town,0,ZA,1680568980,85,-33.9258,18.4232,19.1,0.51
169,Los Gatos,20,US,1680569223,53,37.2266,-121.9747,12.86,9.26
170,Denia,100,ES,1680569223,57,38.8408,0.1057,13.8,1.34
171,Karratha,57,AU,1680568980,62,-20.7377,116.8463,29.44,2.23
172,Ixtapa,20,MX,1680569224,69,20.7,-105.2,25.57,4.12
173,Broome,100,US,1680569224,44,42.2506,-75.833,15.21,3.6
174,Balabac,92,PH,1680569224,69,7.9868,117.0645,28.47,1.14
175,Caravelas,100,BR,1680569224,73,-17.7125,-39.2481,25.11,3.79
176,Powell River,40,CA,1680569224,53,49.8496,-124.5361,11.3,5.14
177,Denpasar,75,ID,1680568896,94,-8.65,115.2167,26.81,3.6
178,Rawson,1,AR,1680569225,59,-43.3002,-65.1023,16.05,6.3
179,Vigía del Fuerte,58,CO,1680569225,91,6.5789,-76.8863,25.73,0.44
180,Shingū,98,JP,1680569225,70,33.7333,135.9833,16.21,1.76
181,Acapulco de Juárez,40,MX,1680569225,70,16.8634,-99.8901,28.9,3.6
182,Jiangyou,100,CN,1680569226,81,31.7667,104.7167,13.96,0.91
183,Rockland,19,US,1680569226,69,41.1668,-74.0496,13.9,4.72
184,Suifenhe,100,CN,1680569199,32,44.4,131.1667,11.21,0.98
185,Aklavik,100,CA,1680569226,85,68.2191,-135.0107,-7.55,3.76
186,Auki,100,SB,1680569227,63,-8.7676,160.7034,30.55,0.59
187,Quang Ngai,96,VN,1680569227,74,15.1167,108.8,26.7,2.18
188,Pilar,100,BR,1680569227,84,-9.5972,-35.9567,26.96,0.62
189,Ada,75,US,1680569227,56,43.4166,-116.1262,4.64,7.72
190,Umm Hājar,100,TD,1680569228,16,13.2954,19.6966,28.7,3.5
191,Matale,30,LK,1680569228,95,7.4721,80.6234,21.38,0.84
192,Aureliana,77,PH,1680569229,58,10.8885,121.978,29.53,1.85
193,Tuatapere,44,NZ,1680569230,53,-46.1333,167.6833,17.79,1.38
194,Slobozia,100,MD,1680569230,87,46.7281,29.7078,7.48,4.27
195,Vyritsa,100,RU,1680569231,97,59.4078,30.3481,-1.27,3.2
196,Funehikimachi-funehiki,0,JP,1680569232,43,37.4333,140.5833,13.75,0.63
197,Southend-on-Sea,9,GB,1680569232,63,51.5378,0.7143,6.66,1.34
198,Katsuura,0,JP,1680569232,53,35.1333,140.3,14.32,4.62
199,Alpena,0,US,1680569233,63,45.0617,-83.4327,8.18,5.14
200,Clyde River,0,CA,1680569233,71,70.4692,-68.5914,-21.87,2.57
201,Bonthe,48,SL,1680569234,85,7.5264,-12.505,26.12,1.0
202,Lompoc,3,US,1680569234,61,34.6391,-120.4579,12.66,8.94
203,Dunedin,35,NZ,1680569235,45,-45.8742,170.5036,20.04,2.96
204,Bambanglipuro,100,ID,1680569235,80,-7.95,110.2833,25.82,1.11
205,Lüderitz,0,NA,1680569236,66,-26.6481,15.1594,16.75,6.7
206,Xining,100,CN,1680569236,74,36.6167,101.7667,1.79,0.54
207,Port Lincoln,18,AU,1680569109,44,-34.7333,135.8667,22.17,2.62
208,Tazovsky,100,RU,1680569237,95,67.4667,78.7,-16.15,10.42
209,Bengkulu,97,ID,1680569237,87,-3.8004,102.2655,25.02,1.19
210,Arraial do Cabo,75,BR,1680569238,83,-22.9661,-42.0278,21.98,1.54
211,Mbigou,100,GA,1680569240,98,-1.9005,11.906,19.95,0.71
212,Lavrentiya,74,RU,1680569241,81,65.5833,-171.0,-15.17,3.29
213,Shenkursk,100,RU,1680569241,97,62.1091,42.896,-1.97,2.81
214,Makkaveyevo,3,RU,1680569243,37,51.7533,113.9454,-4.32,5.9
215,Chabahar,0,IR,1680569243,59,25.2919,60.643,23.07,7.43
216,Diffa,28,NE,1680569244,7,13.3154,12.6113,25.85,3.41
217,Coracora,100,PE,1680569244,94,-15.0333,-73.7833,10.93,1.95
218,Capiíbary,20,PY,1680569244,78,-24.8,-56.0333,21.8,1.52
219,Lipany,67,SK,1680569244,84,49.1538,20.9638,-0.14,4.26
220,Dongsheng,100,CN,1680569245,100,39.8161,109.9776,-0.15,5.85
221,Aden,54,YE,1680569245,78,12.7794,45.0367,27.94,5.95
222,Songjianghe,100,CN,1680568970,49,42.1859,127.479,10.98,2.09
223,Sola,75,VU,1680569245,66,-13.8833,167.55,32.37,2.06
224,Umluj,19,SA,1680569246,35,25.0213,37.2685,24.06,2.44
225,Paphos,97,CY,1680569247,62,34.7667,32.4167,11.88,3.09
226,Alugan,87,PH,1680569247,82,12.2188,125.4808,26.32,6.24
227,Haines Junction,12,CA,1680569248,34,60.7522,-137.5108,-0.03,3.6
228,Madalag,77,PH,1680569248,66,10.8994,122.9828,28.6,5.73
229,Severo-Kuril'sk,69,RU,1680569248,84,50.6789,156.125,0.9,5.62
230,Calabazar de Sagua,40,CU,1680569249,69,22.6447,-79.8961,26.26,6.17
231,Concepción del Uruguay,98,AR,1680569249,91,-32.4825,-58.2372,17.92,3.97
232,Fortuna,35,US,1680569103,74,40.5982,-124.1573,8.88,1.79
233,Palmer,75,US,1680568955,56,42.1584,-72.3287,9.78,8.23
234,Mount Gambier,100,AU,1680569250,56,-37.8333,140.7667,18.94,1.51
235,Chapais,95,CA,1680569250,94,49.7834,-74.8492,-5.12,4.9
236,Calabozo,50,VE,1680569251,38,8.9242,-67.4293,31.99,5.15
237,Talcahuano,0,CL,1680569251,63,-36.7167,-73.1167,15.82,4.63
238,Khvorostyanka,100,RU,1680569252,54,52.6096,48.9597,8.65,2.77
239,Cidreira,25,BR,1680569252,78,-30.1811,-50.2056,22.41,6.4
240,Constantine,75,DZ,1680569252,87,36.365,6.6147,6.67,3.6
241,Aljezur,100,PT,1680569252,86,37.3191,-8.8033,13.46,5.92
242,Ahipara,0,NZ,1680569252,53,-35.1667,173.1667,19.93,5.47
243,Srednekolymsk,11,RU,1680569253,65,67.45,153.6833,-10.36,2.18
244,Egvekinot,15,RU,1680569253,76,66.3167,-179.1667,-19.29,1.6
245,Jatiroto,91,ID,1680569253,80,-7.8833,111.1167,25.12,1.15
246,Tiksi,100,RU,1680569253,89,71.6872,128.8694,-8.55,2.27
247,Kalemie,100,CD,1680569254,90,-5.9475,29.1947,20.8,0.87
248,Lagoa,100,PT,1680569254,69,39.05,-27.9833,14.57,4.75
249,Voh,100,NC,1680569255,54,-20.9667,164.7,32.22,1.03
250,Bayir,94,TR,1680569255,36,37.2687,28.2167,17.29,8.35
251,Saldanha,100,ZA,1680569256,93,-33.0117,17.9442,13.03,3.22
252,Sõmeru,99,EE,1680569256,85,59.3611,26.4375,-2.28,3.83
253,Pacific Grove,0,US,1680569087,64,36.6177,-121.9166,12.82,12.07
254,Camargo,100,MX,1680569257,8,27.6667,-105.1667,28.05,12.02
255,Ust-Maya,100,RU,1680569257,89,60.4167,134.5333,-6.88,3.67
256,Port Macquarie,15,AU,1680569257,68,-31.4333,152.9167,22.72,4.71
257,Los Llanos de Aridane,40,ES,1680569257,91,28.6585,-17.9182,17.86,8.75
258,Mahajanga,20,MG,1680569257,100,-15.7167,46.3167,25.01,1.03
259,Dhubri,42,IN,1680569257,78,26.0333,89.9667,21.3,4.54
260,Malayal,24,PH,1680569258,72,7.208,121.942,26.89,2.64
261,Leningradskiy,5,RU,1680569258,86,69.3833,178.4167,-21.61,1.65
262,Beringovskiy,100,RU,1680569167,91,63.05,179.3167,-13.3,5.96
263,Honningsvåg,100,NO,1680569258,87,70.9821,25.9704,1.86,7.2
264,Vallenar,80,CL,1680569258,60,-28.5708,-70.7581,21.55,0.37
265,Severnyy,100,RU,1680569258,100,50.677,36.5532,7.02,2.0
266,Seoul,0,KR,1680569138,14,37.5683,126.9778,18.76,4.12
267,Necochea,43,AR,1680569259,89,-38.5473,-58.7368,15.44,3.75
268,Vokhtoga,100,RU,1680569259,99,58.8147,41.0461,3.86,2.87
269,Byron Bay,94,AU,1680569259,80,-28.65,153.6167,20.39,5.8
270,George Town,20,MY,1680568890,100,5.4112,100.3354,26.96,1.03
271,Zhigansk,100,RU,1680569259,95,66.7697,123.3711,-9.56,3.19
272,Tupelo,0,US,1680569259,83,34.2576,-88.7034,24.16,3.09
273,Japura,51,ID,1680569260,90,-0.3167,102.35,25.24,0.89
274,Nieuw Amsterdam,82,SR,1680569260,83,5.8833,-55.0833,26.12,4.25
275,Ilulissat,26,GL,1680569260,99,69.2167,-51.1,-26.05,2.53
276,Pasaje,100,EC,1680568988,93,-3.3333,-79.8167,25.68,0.91
277,Constitución,6,CL,1680569260,69,-35.3333,-72.4167,14.28,5.57
278,Mokhsogollokh,100,RU,1680569260,89,61.4681,128.9203,-8.72,1.89
279,Vredendal,6,ZA,1680569261,78,-31.6683,18.5012,16.44,1.41
280,Ekibastuz,0,KZ,1680569261,46,51.6667,75.3667,1.1,3.72
281,Sinnamary,96,GF,1680569261,81,5.3833,-52.95,24.88,3.81
282,Kieta,28,PG,1680569262,67,-6.2167,155.6333,29.97,2.28
283,Upernavik,31,GL,1680569262,100,72.7868,-56.1549,-29.08,2.01
284,Eureka,42,US,1680569262,72,40.8021,-124.1637,9.03,1.34
285,Bogo,17,PH,1680569262,71,11.0517,124.0055,28.17,3.9
286,Khovd,0,MN,1680569262,12,48.0056,91.6419,-6.21,0.64
287,Mackay,22,AU,1680569228,73,-21.15,149.2,28.71,4.06
288,Dinguiraye,4,GN,1680569263,15,11.3,-10.7167,25.86,1.05
289,Fes,0,MA,1680569263,57,34.0372,-4.9998,11.14,3.6
290,Zhangye,100,CN,1680569263,66,38.9342,100.4517,1.46,10.39
291,Inuvik,20,CA,1680569108,59,68.3499,-133.7218,-10.52,3.09
292,Divnomorskoye,54,RU,1680569263,94,44.5011,38.1353,9.29,2.53
293,Épinal,0,FR,1680569264,75,48.1833,6.45,1.42,3.81
294,Tilichiki,100,RU,1680569264,88,60.4667,166.1,-10.26,5.14
295,Esim,100,GH,1680569264,85,4.8699,-2.2405,26.33,3.28
296,Valparaíso,0,CL,1680569265,57,-33.0393,-71.6273,18.89,1.03
297,Dargaville,1,NZ,1680569265,51,-35.9333,173.8833,19.77,4.3
298,Safi,0,MA,1680569265,89,32.2994,-9.2372,15.82,5.09
299,Laguna,0,US,1680569265,28,38.421,-121.4238,15.16,9.26
300,Avilés,100,ES,1680569265,79,43.5547,-5.9248,11.66,4.12
301,Pisco,0,PE,1680569107,88,-13.7,-76.2167,24.03,6.69
302,Maoming,46,CN,1680569265,80,21.65,110.9,25.96,8.18
303,Vânători,100,RO,1680569266,81,45.7333,27.25,4.62,7.93
304,Jurm,100,AF,1680569266,84,36.8648,70.8342,6.93,1.15
305,Kushiro,75,JP,1680568828,75,42.975,144.3747,5.53,4.63
306,Gizo Government Station,100,SB,1680569266,69,-8.103,156.8419,29.38,1.4
307,Diamantino,7,BR,1680569266,94,-14.4086,-56.4461,22.0,1.92
308,Jamālpur,0,BD,1680568863,76,24.9167,89.9333,22.16,4.15
309,Monrovia,67,LR,1680569107,84,6.3005,-10.7969,23.87,2.08
310,Galesburg,100,US,1680569085,49,40.9478,-90.3712,15.95,6.69
311,Yemel'yanovo,40,RU,1680569268,69,56.1681,92.6767,-0.51,6.0
312,Genhe,6,CN,1680569268,49,50.7833,121.5167,-5.35,5.58
313,Chumikan,3,RU,1680569269,62,54.7183,135.315,-2.14,9.63
314,Provost,100,CA,1680569269,93,52.3501,-110.2683,-7.75,2.58
315,Lac du Bonnet,100,CA,1680569269,80,50.2536,-96.0612,-4.18,3.47
316,Krasnosel'kup,62,RU,1680569269,94,65.7,82.4667,-26.1,3.69
317,College,75,US,1680569270,57,64.8569,-147.8028,1.99,2.06
318,Blagoyevo,91,RU,1680569270,89,63.3667,47.9167,-9.22,3.05
319,Pervomayskoye,89,RU,1680569270,82,43.919,46.7102,6.38,2.79
320,Bethel,14,US,1680569270,70,41.3712,-73.414,10.36,0.89
321,Kem',100,RU,1680569271,100,64.9555,34.5793,-16.93,2.23
322,Surgut,0,RU,1680569271,72,61.25,73.4167,-7.9,6.0
323,Maragogi,23,BR,1680569271,80,-9.0122,-35.2225,25.62,2.2
324,Vila Franca do Campo,66,PT,1680569271,79,37.7167,-25.4333,13.23,2.07
325,Corrales,0,US,1680569271,9,35.2378,-106.6067,22.58,14.4
326,Kaspiysk,100,RU,1680569271,100,42.8816,47.6392,6.1,2.0
327,Sistranda,100,NO,1680569272,84,63.7256,8.834,3.98,6.24
328,Enshi,100,CN,1680569272,95,30.3,109.4833,17.15,0.92
329,Kavieng,19,PG,1680569272,70,-2.5744,150.7967,28.73,1.75
330,Faanui,100,PF,1680569272,73,-16.4833,-151.75,28.06,3.96
331,Estevan,100,CA,1680569138,79,49.1334,-102.9842,-8.81,5.14
332,Benjamin Constant,100,BR,1680569272,98,-4.3831,-70.0311,24.07,0.49
333,Mount Isa,98,AU,1680569273,19,-20.7333,139.5,29.87,5.14
334,Harker Heights,0,US,1680569213,63,31.0835,-97.6597,30.14,10.8
335,São Filipe,74,CV,1680569273,67,14.8961,-24.4956,24.17,3.11
336,Payakumbuh,55,ID,1680569273,86,-0.2202,100.6308,23.17,1.09
337,Paris,0,FR,1680569035,66,48.8534,2.3488,6.19,4.63
338,Mineiros,0,BR,1680569273,86,-17.5694,-52.5511,19.37,1.21
339,Gaziantep,0,TR,1680569273,87,37.0594,37.3825,8.96,0.51
340,Bambous Virieux,40,MU,1680569274,88,-20.3428,57.7575,25.14,1.54
341,Oranjemund,0,NA,1680569274,89,-28.55,16.4333,14.64,4.46
342,Bathsheba,75,BB,1680569274,73,13.2167,-59.5167,26.34,7.72
343,Grand Gaube,89,MU,1680569274,79,-20.0064,57.6608,25.22,5.15
344,Fare,100,PF,1680569274,73,-16.7,-151.0167,27.76,3.68
345,Wanning,72,CN,1680569274,81,18.8003,110.3967,26.63,6.62
346,Waingapu,63,ID,1680569274,76,-9.6567,120.2641,27.63,1.79
347,Praia,21,CV,1680569275,78,14.9215,-23.5087,23.3,4.12
348,Udachny,100,RU,1680569275,77,66.4167,112.4,-14.75,8.47
349,Macusani,100,PE,1680569275,91,-14.0833,-70.4333,3.44,1.41
350,Bosaso,8,SO,1680569275,74,11.2842,49.1816,26.81,1.11
351,Ōtawara,0,JP,1680569275,44,36.8667,140.0333,15.04,1.02
352,Salalah,0,OM,1680569275,21,17.0151,54.0924,29.05,3.6
353,Yulara,99,AU,1680569276,40,-25.2406,130.9889,27.61,2.37
354,Villaviciosa,92,ES,1680569276,87,43.4813,-5.4357,11.79,3.31
355,Deputatsky,54,RU,1680569276,91,69.3,139.9,-11.87,1.48
356,Qasigiannguit,56,GL,1680569276,99,68.8193,-51.1922,-26.5,2.22
357,Ostrovnoy,8,RU,1680569276,89,68.0531,39.5131,-9.15,8.89
358,Stornoway,100,GB,1680569276,76,58.2093,-6.3865,8.98,10.29
359,Tabuk,99,PH,1680569277,82,17.4189,121.4443,24.07,1.11
360,Najrān,100,SA,1680569277,41,17.4924,44.1277,16.36,2.73
361,Kirakira,44,SB,1680569277,68,-10.4544,161.9205,30.3,3.57
362,Yurimaguas,100,PE,1680569277,93,-5.9,-76.0833,23.24,0.39
363,Sencha,94,UA,1680569277,92,50.2548,33.346,6.7,3.28
364,Campbellsville,97,US,1680569277,51,37.3434,-85.3419,17.06,3.13
365,Monywa,0,MM,1680569277,40,22.1167,95.1333,26.61,4.31
366,Coxim,1,BR,1680569277,72,-18.5067,-54.76,24.14,1.85
367,The Valley,12,AI,1680569278,77,18.217,-63.0578,26.01,8.2
368,Vardø,100,NO,1680569278,83,70.3705,31.1107,-0.38,11.21
369,Sirte,0,LY,1680569278,53,31.2089,16.5887,15.87,6.72
370,Yerbogachën,100,RU,1680569278,88,61.2767,108.0108,-4.53,7.52
371,Nālūt,0,LY,1680569279,39,30.3333,10.85,11.28,2.68
372,Balikpapan,20,ID,1680569253,94,-1.2675,116.8289,24.55,9.26
373,Sakakah,0,SA,1680569279,21,29.9697,40.2064,15.76,3.58
374,San Juan,100,AR,1680569279,44,-31.5375,-68.5364,23.36,3.19
375,Vostok,65,RU,1680569280,46,46.4856,135.8833,7.04,5.01
376,Vilhena,31,BR,1680569280,98,-12.7406,-60.1458,20.04,1.42
377,Banda Aceh,91,ID,1680569280,78,5.5577,95.3222,26.62,1.01
378,Antofagasta,55,CL,1680569280,86,-23.65,-70.4,20.6,1.67
379,Hede,100,CN,1680569280,95,33.7681,120.2517,15.69,7.72
380,Teknāf,7,BD,1680569280,83,20.8624,92.3058,23.38,1.76
381,Xichang,0,CN,1680569205,49,27.8964,102.2634,15.09,0.8
382,Araouane,0,ML,1680569281,7,18.9048,-3.5265,25.22,3.07
383,Sittwe,3,MM,1680569281,80,20.15,92.9,24.13,1.9
384,Blind River,81,CA,1680569108,86,46.1834,-82.9582,5.06,1.42
385,Tsimmerbude,10,RU,1680569281,66,54.675,20.1347,0.03,4.39
386,Newport,17,GB,1680569281,76,51.5877,-2.9984,6.3,2.56
387,Farnes,53,NO,1680569281,95,61.3167,7.8,0.49,2.22
388,Mapiripán,10,CO,1680569281,82,2.8892,-72.1256,24.67,1.71
389,Rio Verde de Mato Grosso,0,BR,1680569282,75,-18.9181,-54.8442,23.29,1.89
390,La Providencia,5,MX,1680569282,32,28.7167,-111.5833,26.23,4.22
391,Kiryat Gat,0,IL,1680569282,28,31.61,34.7642,16.71,4.06
392,Ozernovskiy,6,RU,1680569283,80,51.5,156.5167,-0.31,4.64
393,Deniliquin,27,AU,1680569283,36,-35.5333,144.9667,25.04,3.13
394,Itoman,40,JP,1680569283,64,26.1247,127.6694,22.43,8.23
395,Salina Cruz,44,MX,1680568900,71,16.1667,-95.2,28.11,5.9
396,Hasaki,0,JP,1680569284,53,35.7333,140.8333,15.22,4.98
397,Moose Factory,0,CA,1680569284,66,51.2585,-80.6094,-13.0,4.63
398,Kununurra,75,AU,1680569284,74,-15.7667,128.7333,28.99,1.54
399,Waipawa,1,NZ,1680569285,56,-41.4122,175.5153,14.64,3.12
400,Kaoma,18,ZM,1680569285,97,-14.7833,24.8,16.07,2.08
401,Te Anau,21,NZ,1680569286,51,-45.4167,167.7167,17.5,0.62
402,Edéia,0,BR,1680569286,88,-17.3383,-49.9314,19.54,1.94
403,Galle,89,LK,1680569286,83,6.0367,80.217,25.32,1.23
404,Chu,100,KZ,1680569286,30,43.5983,73.7614,5.82,3.43
405,Mbamba,100,NG,1680569287,16,9.9833,13.1,27.03,2.28
406,Goya,22,AR,1680568767,50,-29.14,-59.2626,21.87,3.93
407,Lebu,0,CL,1680569266,76,-37.6167,-73.65,12.91,7.97
408,Tiarei,30,PF,1680569288,75,-17.5333,-149.3333,32.01,2.75
409,Kavaratti,100,IN,1680568766,70,10.5669,72.642,27.38,3.59
410,Dunda,90,TZ,1680569289,98,-8.1167,34.25,16.54,1.09
411,Santarém,0,BR,1680569289,88,-2.4431,-54.7083,25.07,2.06
412,Richards Bay,100,ZA,1680569290,76,-28.783,32.0377,22.59,6.6
413,Mookane,0,BW,1680569290,56,-23.688,26.6595,21.12,0.72
414,Turan,0,VN,1680569290,78,16.0678,108.2208,25.99,3.6
415,Trincomalee,4,LK,1680569290,85,8.5711,81.2335,25.74,3.99
416,Qui Nhon,14,VN,1680569291,76,13.7667,109.2333,27.27,3.09
417,Campos Altos,100,BR,1680569291,91,-19.6961,-46.1714,17.04,0.06
418,Mikkeli,0,FI,1680569291,58,61.6886,27.2723,-5.94,1.54
419,Maceió,40,BR,1680569292,78,-9.6658,-35.7353,27.69,2.06
420,Verkhnetulomskiy,50,RU,1680569293,90,68.6073,31.7962,-4.93,3.46
421,Krasnyy Chikoy,2,RU,1680569293,55,50.3643,108.7512,-6.17,1.42
422,Río Gallegos,0,AR,1680569160,54,-51.6226,-69.2181,11.03,6.69
423,Pelagiada,0,RU,1680569293,93,45.2064,42.0236,4.75,3.0
424,Poronaysk,100,RU,1680569294,82,49.2167,143.1167,2.84,2.51
425,Vung Tau,0,VN,1680569294,78,10.346,107.0843,27.69,4.35
426,Tipuani,100,BO,1680569295,97,-15.5648,-68.0185,21.43,0.62
427,Sabha,0,LY,1680569295,17,27.0377,14.4283,14.43,3.62
428,Kankan,77,GN,1680569295,49,10.3854,-9.3057,27.09,2.41
429,Victor Harbor,100,AU,1680569296,37,-35.5667,138.6167,21.57,1.98
430,Katobu,100,ID,1680569296,81,-4.9408,122.5276,27.11,0.91
431,Abu Dhabi,0,AE,1680569106,66,24.4667,54.3667,23.3,3.6
432,Karwar,44,IN,1680569296,81,14.8,74.1333,21.38,1.98
433,Zachepylivka,100,UA,1680569296,95,49.1939,35.2394,6.82,2.21
434,Venice,0,US,1680569003,88,27.0998,-82.4543,25.55,2.24
435,Skjervøy,99,NO,1680569296,90,70.0311,20.9714,3.0,12.66
436,Am Timan,48,TD,1680569297,15,11.0297,20.2827,29.18,3.25
437,Komsomolets,80,KZ,1680569298,83,53.7453,62.0708,0.52,1.39
438,Agboville,100,CI,1680569300,95,5.928,-4.2132,23.73,1.12
439,Heihe,5,CN,1680569302,26,50.2441,127.4902,1.32,7.69
440,Oddur,30,SO,1680569303,74,4.1213,43.8894,24.95,4.53
441,Sisimiut,5,GL,1680569304,73,66.9395,-53.6735,-14.79,5.53
442,Itanhaém,70,BR,1680569304,83,-24.1831,-46.7889,22.53,3.06
443,Cascais,100,PT,1680569304,79,38.6979,-9.4215,14.17,6.26
444,San Policarpo,77,PH,1680569304,81,12.1791,125.5072,26.5,6.58
445,Buala,100,SB,1680569306,76,-8.145,159.5921,28.35,2.94
446,Westport,0,US,1680569270,73,41.1415,-73.3579,10.62,4.47
447,Petropavlovsk-Kamchatskiy,0,RU,1680569308,45,53.0452,158.6483,3.33,5.0
448,Nouadhibou,100,MR,1680569310,73,20.931,-17.0347,19.99,10.29
449,Gunnedah,4,AU,1680569311,50,-30.9833,150.25,22.87,2.51
450,Barra Patuca,10,HN,1680569311,75,15.8,-84.2833,26.2,6.8
451,Shubarkuduk,85,KZ,1680569311,49,49.1447,56.4872,6.19,4.63
452,Kahului,40,US,1680569311,70,20.8947,-156.47,27.01,7.2
453,Henties Bay,0,NA,1680569311,85,-22.116,14.2845,16.3,3.6
454,Acajutla,12,SV,1680569311,68,13.5928,-89.8275,27.25,3.34
455,Bria,98,CF,1680569312,47,6.5423,21.9863,23.98,1.96
456,Sivas Province,0,TR,1680569313,81,39.7916,37.0019,5.35,5.14
457,Lappeenranta,0,FI,1680569313,68,61.0587,28.1887,-4.14,2.57
458,Arrondissement de Saint-Gaudens,7,FR,1680569314,89,43.0833,0.6667,3.9,1.91
459,Nuevo Progreso,1,MX,1680569315,64,23.1667,-97.95,26.05,1.34
460,Ugoofaaru,6,MV,1680569315,72,5.6667,73.0,27.21,2.13
461,Picota,100,PE,1680568944,97,-6.9197,-76.3304,23.27,0.81
462,Sorong,100,ID,1680569316,84,-0.8833,131.25,26.45,3.57
463,Carutapera,100,BR,1680569316,95,-1.195,-46.02,23.3,1.41
464,Vanimo,100,PG,1680569316,78,-2.6741,141.3028,27.84,1.46
465,Barranca,100,PE,1680569316,80,-10.75,-77.7667,24.73,3.5
466,Troitskiy,76,RU,1680569317,83,57.0603,63.7481,1.79,1.29
467,Mae Sai,2,TH,1680569317,37,20.4335,99.8762,27.36,0.75
468,Bouna,67,CI,1680569317,65,9.2667,-3.0,24.86,1.94
469,Chennai,40,IN,1680569317,88,13.0878,80.2785,28.31,3.09
470,Dalbandin,0,PK,1680569317,16,28.8947,64.4101,17.72,3.42
471,Mogadishu,16,SO,1680569318,75,2.0371,45.3438,27.86,5.21
472,Nabire,100,ID,1680569318,70,-3.3667,135.4833,28.27,0.26
473,Whitehorse,20,CA,1680569318,34,60.7161,-135.0538,-0.5,0.0
474,Vao,18,NC,1680569318,81,-22.6667,167.4833,25.79,3.49
475,Vakhrushev,100,RU,1680569319,80,48.9833,142.9667,4.24,3.66
476,Sajanan,7,TN,1680569319,86,37.0573,9.2426,13.51,5.13
477,Novyy Urgal,100,RU,1680569319,42,51.0736,132.5642,0.17,7.18
478,Kabanjahe,85,ID,1680569319,87,3.1001,98.4908,19.43,0.88
479,Dingle,51,PH,1680569319,62,10.9995,122.6711,29.37,4.29
480,Bucak,100,TR,1680569319,80,37.4592,30.595,10.29,1.27
481,Butterworth,20,MY,1680569116,100,5.3991,100.3638,27.02,1.03
482,Boké,4,GN,1680569319,85,10.9409,-14.2967,23.7,1.48
483,Acuexcomac,20,MX,1680569320,11,19.0333,-98.3833,27.56,9.26
484,Tadine,90,NC,1680569320,72,-21.55,167.8833,28.03,3.17
485,Narok,100,KE,1680569320,92,-1.0783,35.8601,13.48,0.95
486,Tonantins,100,BR,1680569320,97,-2.8731,-67.8022,23.12,0.99
487,Joshīmath,26,IN,1680569320,66,30.5667,79.5667,7.51,2.68
488,Kingaroy,2,AU,1680569320,42,-26.5333,151.8333,26.27,2.14
489,Marzuq,68,YE,1680569321,72,14.4,46.4667,22.42,1.86
490,Pyaozerskiy,85,RU,1680569321,100,65.8333,31.1667,-17.42,1.88
491,Husavik,100,IS,1680569321,96,66.0449,-17.3389,2.34,4.32
492,Kundiawa,99,PG,1680569321,58,-6.0167,144.9667,25.62,0.27
493,Lębork,20,PL,1680569225,63,54.5392,17.7501,1.38,2.24
494,Orsha,100,BY,1680569322,97,54.5153,30.4053,-1.59,4.05
495,Bulawayo,28,ZW,1680569322,74,-20.15,28.5833,14.68,2.01
496,Kaihua,0,CN,1680569322,45,23.3687,104.28,21.6,4.61
497,Portland,75,US,1680568849,80,45.5234,-122.6762,9.89,2.57
498,Stony Plain,0,CA,1680569106,60,53.5334,-114.0021,4.06,4.12
499,Port Hedland,24,AU,1680569322,66,-20.3167,118.5667,31.03,3.09
500,Włoszczowa,15,PL,1680569322,79,50.8526,19.9659,0.1,3.94
501,Pando,100,UY,1680569322,77,-34.7167,-55.95,19.94,0.0
502,Gazli,98,UZ,1680569323,52,40.1333,63.45,10.48,4.61
503,Vera Cruz,99,BR,1680569323,80,-12.6333,-41.0333,21.33,1.92
504,Cooma,100,AU,1680569323,64,-36.2333,149.1333,16.51,1.13
505,Mezőberény,100,HU,1680569324,65,46.8167,21.0333,2.23,9.28
506,Nome,100,US,1680569118,79,64.5011,-165.4064,-7.69,3.6
507,Amapá,14,BR,1680569324,92,1.0,-52.0,21.66,1.41
508,Naze,100,JP,1680569324,61,28.3667,129.4833,19.51,9.63
509,Mandaguaçu,0,BR,1680569324,61,-23.3472,-52.0953,25.78,0.0
510,Ballater,50,GB,1680569324,90,57.0493,-3.0402,3.33,3.03
511,Aliman,100,RO,1680569324,85,44.1833,27.85,7.51,7.58
512,Lugovoy,100,KZ,1680569324,41,42.9472,72.7644,7.4,1.87
513,Alofi,35,NU,1680569325,83,-19.0595,-169.9187,26.94,6.17
514,Columbus,0,US,1680569127,72,39.9612,-82.9988,18.23,0.0
515,Sindor,100,RU,1680569325,91,62.8629,51.8905,-10.89,2.59
516,Leshukonskoye,84,RU,1680569325,96,64.8989,45.7622,-13.38,2.06
517,Slavutych,100,UA,1680569325,98,51.5196,30.7343,0.75,3.7
518,Ranong,85,TH,1680569325,69,9.9658,98.6348,22.96,1.46
519,Kodinsk,100,RU,1680569325,90,58.6881,99.1844,-1.0,4.23
520,Fukuechō,75,JP,1680569325,77,32.6881,128.8419,18.2,4.63
521,Manbij,87,SY,1680569325,69,36.5281,37.9549,12.55,2.95
522,Berlevåg,75,NO,1680569326,86,70.8578,29.0864,1.0,10.29
523,Nantucket,20,US,1680569326,79,41.2835,-70.0995,8.03,6.69
524,Krutinka,6,RU,1680569326,86,56.0055,71.5113,-1.17,3.04
525,Tonj,35,SS,1680569326,16,7.2737,28.6822,26.29,0.55
526,Ilave,100,PE,1680569326,85,-16.0833,-69.6667,6.49,3.43
527,Umm Kaddadah,89,SD,1680569327,11,13.6017,26.6876,24.59,4.94
528,Batagay-Alyta,100,RU,1680569327,73,67.8006,130.4114,-12.5,0.75
529,Quesnel,75,CA,1680569327,52,52.9999,-122.5029,4.28,4.63
530,Bowen,33,AU,1680569327,80,-20.0167,148.2333,26.44,3.08
531,Laje,100,BR,1680569328,61,-10.1833,-40.9667,21.97,1.67
532,Rio Grande,100,BR,1680569328,75,-32.035,-52.0986,20.06,4.61
533,Nadym,7,RU,1680569328,81,65.5333,72.5167,-19.6,5.46
534,Cururupu,87,BR,1680569328,98,-1.8283,-44.8683,22.03,0.74
535,Yatou,100,CN,1680569328,95,37.15,122.3833,10.04,6.16
536,Pucallpa,40,PE,1680569328,83,-8.3791,-74.5539,26.02,2.57
537,Korla,0,CN,1680569329,21,41.7597,86.1469,-0.72,3.7
538,Hambantota,40,LK,1680569329,100,6.1241,81.1185,24.19,1.03
539,Arrondissement de Bastia,86,FR,1680569329,64,42.6667,9.3333,11.28,4.63
540,Aketi,100,CD,1680569329,95,2.7388,23.7833,22.07,0.41
541,Murici,100,BR,1680569329,86,-9.3067,-35.9433,27.16,0.51
542,Sur,25,OM,1680569330,57,22.5667,59.5289,23.08,1.37
543,Guerrero Negro,3,MX,1680569330,68,27.9769,-114.0611,14.77,11.21
544,Mâncio Lima,0,BR,1680569330,97,-7.6142,-72.8958,25.04,1.54
545,La Libertad,100,EC,1680569330,80,-2.2333,-80.9,27.09,3.46
546,Saint-Gabriel,92,CA,1680569331,89,46.3001,-73.3824,1.82,3.36
547,Landskrona,100,SE,1680569331,61,55.8708,12.8302,0.03,1.96
548,Matinhos,30,BR,1680569331,84,-25.8175,-48.5428,21.35,2.96
549,Rocha,100,UY,1680569331,88,-34.4833,-54.3333,16.77,0.54
550,Coyhaique,100,CL,1680569113,62,-45.5752,-72.0662,12.97,1.03
551,Santa Barbara,0,US,1680569245,50,34.7333,-120.0343,12.05,9.77
552,Morros,100,BR,1680569331,93,-9.4467,-46.3003,21.39,2.6
553,Contamana,96,PE,1680569331,95,-7.3333,-75.0167,22.81,0.64
554,Vestmanna,100,FO,1680569332,100,62.1564,-7.1664,6.51,7.2
555,Riyadh,78,SA,1680569050,22,24.6877,46.7219,15.08,0.86
556,Arlit,97,NE,1680569332,7,18.7369,7.3853,25.29,3.74
557,Miyako,4,JP,1680569332,40,39.6367,141.9525,13.49,2.01
558,Madang,60,PG,1680569332,65,-5.2246,145.7966,29.38,0.47
559,Cap Malheureux,92,MU,1680569332,79,-19.9842,57.6142,24.15,5.13
560,Aragarças,7,BR,1680569333,89,-15.8975,-52.2508,22.01,0.75
561,Coatesville,0,US,1680569333,71,39.9832,-75.8238,14.24,0.45
562,Marawi,51,PH,1680569333,62,7.9986,124.2928,24.41,1.78
563,Nhulunbuy,75,AU,1680569334,70,-12.2333,136.7667,31.34,5.66
564,Evensk,2,RU,1680569334,58,61.95,159.2333,-11.84,0.62
565,Ivdel',100,RU,1680569334,96,60.6911,60.4206,-1.73,3.14
